
{
	"data": {
		"stations": [
			{
				"lon": -3.206435329645956,
				"capacity": 13,
				"lat": 55.93715871276677,
				"station_id": "290",
				"name": "Bruntsfield",
				"address": "Corner of Bruntsfield Terrace"
			},
			{
				"lon": -3.2031839065252825,
				"capacity": 19,
				"lat": 55.951500737349754,
				"station_id": "289",
				"name": "Castle Street",
				"address": "Castle Street"
			},
			{
				"lon": -3.176351263805259,
				"capacity": 25,
				"lat": 55.981286014792985,
				"station_id": "285",
				"name": "Ocean Terminal",
				"address": "Ocean Drive"
			},
			{
				"lon": -3.1668846170233564,
				"capacity": 37,
				"lat": 55.96919856910954,
				"station_id": "284",
				"name": "Leith Links",
				"address": "Vanburgh Place"
			},
			{
				"lon": -3.2234280553759618,
				"capacity": 20,
				"lat": 55.959504176688824,
				"station_id": "277",
				"name": "Waitrose, Comely Bank",
				"address": "Near Waitrose Car Park Entrance"
			},
			{
				"lon": -3.2036782907171073,
				"capacity": 30,
				"lat": 55.945159896857184,
				"station_id": "275",
				"name": "Riego Street",
				"address": "Riego Street"
			},
			{
				"lon": -3.179472670388236,
				"capacity": 15,
				"lat": 55.96253727246136,
				"station_id": "273",
				"name": "Shrubhill",
				"address": "Albert Place"
			},
			{
				"lon": -3.182738850746432,
				"capacity": 13,
				"lat": 55.939809466328285,
				"station_id": "265",
				"name": "Meadows East",
				"address": "Between Melville Terrace and Sciennes"
			},
			{
				"lon": -3.1715859343115653,
				"capacity": 13,
				"lat": 55.939963469723715,
				"station_id": "264",
				"name": "Pollock Halls",
				"address": "18 Holyrood Park Road"
			},
			{
				"lon": -3.196283585062929,
				"capacity": 10,
				"lat": 55.96280408759764,
				"station_id": "262",
				"name": "Canonmills",
				"address": "Broughton Road"
			},
			{
				"lon": -3.1810053147805775,
				"capacity": 13,
				"lat": 55.960929747664,
				"station_id": "261",
				"name": "Brunswick Place",
				"address": "Junction Brunswick Street and Elm Row"
			},
			{
				"lon": -3.1972658564195626,
				"capacity": 16,
				"lat": 55.944771652335476,
				"station_id": "260",
				"name": "Lauriston Place",
				"address": "Lauriston Place"
			},
			{
				"lon": -3.1927736686587878,
				"capacity": 10,
				"lat": 55.95474881217642,
				"station_id": "259",
				"name": "St Andrew Square",
				"address": "St Andrew Square"
			},
			{
				"lon": -3.2080701822277433,
				"capacity": 7,
				"lat": 55.95856558589723,
				"station_id": "258",
				"name": "Stockbridge",
				"address": "1, Dean Bank Lane"
			},
			{
				"lon": -3.1168881187301167,
				"capacity": 13,
				"lat": 55.957004308392506,
				"station_id": "257",
				"name": "Portobello",
				"address": "Westbank Street"
			},
			{
				"lon": -3.181682340931843,
				"capacity": 16,
				"lat": 55.95316433242384,
				"station_id": "256",
				"name": "St Andrews House",
				"address": "Regent Road"
			},
			{
				"lon": -3.1769018141649212,
				"capacity": 7,
				"lat": 55.92200087060626,
				"station_id": "255",
				"name": "Kings Buildings 4",
				"address": "Kings Buildings Bus Stop and turning circle"
			},
			{
				"lon": -3.1753845849070785,
				"capacity": 26,
				"lat": 55.923478807846635,
				"station_id": "254",
				"name": "Kings Building 3",
				"address": "James Dewar Road"
			},
			{
				"lon": -3.1716462453634904,
				"capacity": 10,
				"lat": 55.92320215516664,
				"station_id": "253",
				"name": "Kings Building 2",
				"address": "Entrance to Sanderson Building"
			},
			{
				"lon": -3.173830830087809,
				"capacity": 7,
				"lat": 55.92418540667696,
				"station_id": "252",
				"name": "Kings Buildings 1",
				"address": "James Hutton Road"
			},
			{
				"lon": -3.187526919462357,
				"capacity": 16,
				"lat": 55.952641035774384,
				"station_id": "251",
				"name": "Waverley Station",
				"address": "Waverley Station Concourse"
			},
			{
				"lon": -3.174115590621568,
				"capacity": 13,
				"lat": 55.977637787726984,
				"station_id": "250",
				"name": "Victoria Quay",
				"address": "Entrance to Scottish Government Office"
			},
			{
				"lon": -3.2092475016246453,
				"capacity": 10,
				"lat": 55.94335692764551,
				"station_id": "249",
				"name": "Fountainbridge",
				"address": "116 Fountainbridge"
			},
			{
				"lon": -3.188665492872815,
				"capacity": 37,
				"lat": 55.94600418964078,
				"station_id": "248",
				"name": "Bristo Square",
				"address": "Bristo Square, Potterrow"
			},
			{
				"lon": -3.2071011721072864,
				"capacity": 13,
				"lat": 55.95233546161639,
				"station_id": "247",
				"name": "Charlotte Square",
				"address": "Charlotte Square"
			},
			{
				"lon": -3.173923554315593,
				"capacity": 10,
				"lat": 55.939000247888764,
				"station_id": "246",
				"name": "Royal Commonwealth Pool",
				"address": "Dalkeith Road, Edinburgh EH16 5BB"
			},
			{
				"lon": -3.1841785354060903,
				"capacity": 4,
				"lat": 55.95173449698344,
				"station_id": "225",
				"name": "Waverley Court",
				"address": "Waverley Court, East Market Street"
			},
			{
				"lon": -3.190257770093808,
				"capacity": 14,
				"lat": 55.95010933017899,
				"station_id": "189",
				"name": "City Chambers",
				"address": "High Street"
			},
			{
				"lon": -3.1914209989898836,
				"capacity": 19,
				"lat": 55.95134439884462,
				"station_id": "183",
				"name": "Waverley Bridge",
				"address": "Waverley Bridge"
			},
			{
				"lon": -3.1883110727223993,
				"capacity": 25,
				"lat": 55.94308406301113,
				"station_id": "171",
				"name": "George Square",
				"address": "George Square"
			}
		]
	},
	"ttl": 10,
	"last_updated": 1541579615
}
